rosbagTimestamp,controller_name,log,-,name,stamp,secs,nsecs,values
1543504660238195571,'',,"""Drone1_pos""",,1543504660,238016388,"[1.0246825218200684, 0.008258718065917492, 0.03609181195497513]"
1543504660248932611,'',,"""Drone1_pos""",,1543504660,248785831,"[1.0246442556381226, 0.008122670464217663, 0.036207329481840134]"
1543504660257161981,'',,"""Drone1_pos""",,1543504660,256996587,"[1.0246490240097046, 0.00832068920135498, 0.03603491932153702]"
1543504660267272081,'',,"""Drone1_pos""",,1543504660,267141659,"[1.0246459245681763, 0.008400068618357182, 0.03593490645289421]"
1543504660277386789,'',,"""Drone1_pos""",,1543504660,277251162,"[1.0246657133102417, 0.008330762386322021, 0.03600706905126572]"
1543504660287172297,'',,"""Drone1_pos""",,1543504660,287047910,"[1.0246604681015015, 0.008077994920313358, 0.03622061759233475]"
1543504660297187906,'',,"""Drone1_pos""",,1543504660,297049146,"[1.0246247053146362, 0.0080293919891119, 0.03627801686525345]"
1543504660307223427,'',,"""Drone1_pos""",,1543504660,307025868,"[1.0246684551239014, 0.00828144233673811, 0.03607045114040375]"
1543504660317292619,'',,"""Drone1_pos""",,1543504660,317122240,"[1.0246738195419312, 0.008280501700937748, 0.03603526949882507]"
1543504660327106781,'',,"""Drone1_pos""",,1543504660,326933146,"[1.0246418714523315, 0.008354755118489265, 0.03593228757381439]"
1543504660337154504,'',,"""Drone1_pos""",,1543504660,337036182,"[1.0246269702911377, 0.00814433116465807, 0.036120422184467316]"
1543504660347075519,'',,"""Drone1_pos""",,1543504660,346925780,"[1.024678349494934, 0.00826111901551485, 0.036044370383024216]"
1543504660357262277,'',,"""Drone1_pos""",,1543504660,357056092,"[1.0246784687042236, 0.00833107903599739, 0.03601439669728279]"
1543504660367066523,'',,"""Drone1_pos""",,1543504660,366921316,"[1.0246809720993042, 0.008295387960970402, 0.036000657826662064]"
1543504660377167388,'',,"""Drone1_pos""",,1543504660,377005842,"[1.0246707201004028, 0.008345409296452999, 0.035962048918008804]"
1543504660387045732,'',,"""Drone1_pos""",,1543504660,386928562,"[1.0246169567108154, 0.008030111901462078, 0.036257553845644]"
1543504660397235299,'',,"""Drone1_pos""",,1543504660,397042788,"[1.0246591567993164, 0.008234246633946896, 0.036113057285547256]"
1543504660407145607,'',,"""Drone1_pos""",,1543504660,407003177,"[1.0246766805648804, 0.008311170153319836, 0.03601660951972008]"
1543504660417333530,'',,"""Drone1_pos""",,1543504660,417182172,"[1.0246611833572388, 0.008074871264398098, 0.036196161061525345]"
1543504660427036699,'',,"""Drone1_pos""",,1543504660,426862573,"[1.0246564149856567, 0.008073038421571255, 0.036217816174030304]"
1543504660437056146,'',,"""Drone1_pos""",,1543504660,436945093,"[1.0246775150299072, 0.008242465555667877, 0.03607386723160744]"
1543504660447271487,'',,"""Drone1_pos""",,1543504660,447086443,"[1.0246539115905762, 0.008337976410984993, 0.035946380347013474]"
1543504660457539130,'',,"""Drone1_pos""",,1543504660,457348533,"[1.0246717929840088, 0.008321914821863174, 0.03599504381418228]"
1543504660467106103,'',,"""Drone1_pos""",,1543504660,466979542,"[1.0246784687042236, 0.008298338390886784, 0.03600156679749489]"
1543504660477142570,'',,"""Drone1_pos""",,1543504660,476911931,"[1.0246564149856567, 0.008319703862071037, 0.03595862165093422]"
1543504660487409592,'',,"""Drone1_pos""",,1543504660,487235414,"[1.024616003036499, 0.008109018206596375, 0.03617071360349655]"
1543504660497154520,'',,"""Drone1_pos""",,1543504660,497006928,"[1.0246307849884033, 0.008353902958333492, 0.035974156111478806]"
1543504660507256862,'',,"""Drone1_pos""",,1543504660,507077927,"[1.024680733680725, 0.00834424328058958, 0.035987336188554764]"
1543504660517109238,'',,"""Drone1_pos""",,1543504660,516929283,"[1.0246837139129639, 0.008287087082862854, 0.03601410984992981]"
1543504660527268941,'',,"""Drone1_pos""",,1543504660,527014266,"[1.0246434211730957, 0.007994015701115131, 0.03626035898923874]"
1543504660537355759,'',,"""Drone1_pos""",,1543504660,537188026,"[1.0246628522872925, 0.008226362988352776, 0.03606340289115906]"
1543504660546976488,'',,"""Drone1_pos""",,1543504660,546887248,"[1.0246540307998657, 0.008369235321879387, 0.03597506880760193]"
1543504660557249701,'',,"""Drone1_pos""",,1543504660,557101942,"[1.024682879447937, 0.008329016156494617, 0.03601037710905075]"
1543504660567398465,'',,"""Drone1_pos""",,1543504660,567241418,"[1.024666428565979, 0.00812685489654541, 0.03616131469607353]"
1543504660577298481,'',,"""Drone1_pos""",,1543504660,577087141,"[1.0246540307998657, 0.008184273727238178, 0.036100562661886215]"
1543504660587210808,'',,"""Drone1_pos""",,1543504660,587046558,"[1.024651288986206, 0.008304708637297153, 0.035962268710136414]"
1543504660597318433,'',,"""Drone1_pos""",,1543504660,597130436,"[1.0246554613113403, 0.008314456790685654, 0.03603377193212509]"
1543504660607491590,'',,"""Drone1_pos""",,1543504660,607301190,"[1.0246787071228027, 0.00833644438534975, 0.036029670387506485]"
1543504660617369108,'',,"""Drone1_pos""",,1543504660,617137892,"[1.0246626138687134, 0.008102292194962502, 0.036182574927806854]"
1543504660627296201,'',,"""Drone1_pos""",,1543504660,627120725,"[1.0246859788894653, 0.008269260637462139, 0.03602194786071777]"
1543504660637537417,'',,"""Drone1_pos""",,1543504660,637397200,"[1.0246788263320923, 0.008269093930721283, 0.036012470722198486]"
1543504660646931309,'',,"""Drone1_pos""",,1543504660,646766616,"[1.0246474742889404, 0.008374687284231186, 0.035951223224401474]"
1543504660657217742,'',,"""Drone1_pos""",,1543504660,657110877,"[1.024660348892212, 0.008322423323988914, 0.03599207475781441]"
1543504660667110999,'',,"""Drone1_pos""",,1543504660,666977856,"[1.024674892425537, 0.008305151015520096, 0.0359785258769989]"
1543504660677238106,'',,"""Drone1_pos""",,1543504660,677101076,"[1.0246604681015015, 0.008343393914401531, 0.03593260794878006]"
1543504660687349136,'',,"""Drone1_pos""",,1543504660,687155009,"[1.0246721506118774, 0.00827900879085064, 0.03600549325346947]"
1543504660697116063,'',,"""Drone1_pos""",,1543504660,696882624,"[1.0246630907058716, 0.00819232314825058, 0.036105912178754807]"
1543504660707061459,'',,"""Drone1_pos""",,1543504660,706954883,"[1.024637222290039, 0.008365125395357609, 0.035925641655921936]"
1543504660717140365,'',,"""Drone1_pos""",,1543504660,716936193,"[1.0246602296829224, 0.008306611329317093, 0.035992331802845]"
1543504660727153520,'',,"""Drone1_pos""",,1543504660,727010265,"[1.0246758460998535, 0.0083009023219347, 0.03600100055336952]"
1543504660737670921,'',,"""Drone1_pos""",,1543504660,737538776,"[1.024651288986206, 0.008338624611496925, 0.03594089299440384]"
1543504660746970883,'',,"""Drone1_pos""",,1543504660,746892080,"[1.0246232748031616, 0.008124281652271748, 0.03618115186691284]"
1543504660757415849,'',,"""Drone1_pos""",,1543504660,757186011,"[1.0246573686599731, 0.008261734619736671, 0.036051444709300995]"
1543504660766860329,'',,"""Drone1_pos""",,1543504660,766732567,"[1.0246645212173462, 0.008276893757283688, 0.03601810336112976]"
1543504660777292516,'',,"""Drone1_pos""",,1543504660,776987321,"[1.0246883630752563, 0.00828441884368658, 0.03599127382040024]"
1543504660787462688,'',,"""Drone1_pos""",,1543504660,787299193,"[1.0246493816375732, 0.008095297031104565, 0.03618780896067619]"
1543504660797060685,'',,"""Drone1_pos""",,1543504660,796974432,"[1.0246447324752808, 0.008305827155709267, 0.03599441796541214]"
1543504660807374682,'',,"""Drone1_pos""",,1543504660,807144367,"[1.0246638059616089, 0.008281449787318707, 0.036025818437337875]"
1543504660817603655,'',,"""Drone1_pos""",,1543504660,817393308,"[1.0246617794036865, 0.008325536735355854, 0.03597337752580643]"
1543504660827128134,'',,"""Drone1_pos""",,1543504660,827019723,"[1.0246764421463013, 0.008301000110805035, 0.03598342090845108]"
1543504660837363429,'',,"""Drone1_pos""",,1543504660,837247325,"[1.0246680974960327, 0.008353359997272491, 0.035940248519182205]"
1543504660847359721,'',,"""Drone1_pos""",,1543504660,847055876,"[1.0246628522872925, 0.008307695388793945, 0.03598557785153389]"
1543504660857343403,'',,"""Drone1_pos""",,1543504660,857173501,"[1.024639368057251, 0.008093779906630516, 0.036191921681165695]"
1543504660867001740,'',,"""Drone1_pos""",,1543504660,866940888,"[1.024643063545227, 0.008332107216119766, 0.03596195951104164]"
1543504660877721727,'',,"""Drone1_pos""",,1543504660,877460410,"[1.0246692895889282, 0.008305647410452366, 0.035987209528684616]"
1543504660887346577,'',,"""Drone1_pos""",,1543504660,887155670,"[1.0246700048446655, 0.008078525774180889, 0.03620320186018944]"
1543504660897162447,'',,"""Drone1_pos""",,1543504660,897050069,"[1.0246751308441162, 0.008251626044511795, 0.03606037795543671]"
1543504660907280285,'',,"""Drone1_pos""",,1543504660,907164090,"[1.0246717929840088, 0.008293124847114086, 0.03604688122868538]"
1543504660917318603,'',,"""Drone1_pos""",,1543504660,917135150,"[1.024672031402588, 0.008304057642817497, 0.035986803472042084]"
1543504660927203358,'',,"""Drone1_pos""",,1543504660,927061235,"[1.024673342704773, 0.008300160057842731, 0.03598800674080849]"
1543504660937481002,'',,"""Drone1_pos""",,1543504660,937390592,"[1.0246878862380981, 0.008291356265544891, 0.036005765199661255]"
1543504660947239095,'',,"""Drone1_pos""",,1543504660,946976434,"[1.024668574333191, 0.008043131791055202, 0.036191511899232864]"
1543504660957638443,'',,"""Drone1_pos""",,1543504660,957287187,"[1.0246367454528809, 0.008265011012554169, 0.036036521196365356]"
1543504660967104129,'',,"""Drone1_pos""",,1543504660,966955862,"[1.0246607065200806, 0.008326862007379532, 0.03599655255675316]"
1543504660977260204,'',,"""Drone1_pos""",,1543504660,977111907,"[1.0246766805648804, 0.008309942670166492, 0.03598921373486519]"
1543504660987182858,'',,"""Drone1_pos""",,1543504660,987073976,"[1.024690866470337, 0.008283192291855812, 0.036012202501297]"
1543504660997089079,'',,"""Drone1_pos""",,1543504660,997000516,"[1.0246844291687012, 0.008243812248110771, 0.03600455820560455]"
1543504661007190551,'',,"""Drone1_pos""",,1543504661,7030155,"[1.024656891822815, 0.00827309861779213, 0.03602715954184532]"
1543504661017104060,'',,"""Drone1_pos""",,1543504661,16881107,"[1.0246213674545288, 0.008279901929199696, 0.03606575354933739]"
1543504661027013366,'',,"""Drone1_pos""",,1543504661,26917059,"[1.0246583223342896, 0.008301092311739922, 0.03603595495223999]"
1543504661037489232,'',,"""Drone1_pos""",,1543504661,37328700,"[1.0246920585632324, 0.008287318050861359, 0.03599967435002327]"
1543504661047086711,'',,"""Drone1_pos""",,1543504661,46872705,"[1.024692177772522, 0.008244683034718037, 0.03601023554801941]"
1543504661057481186,'',,"""Drone1_pos""",,1543504661,57240726,"[1.0246421098709106, 0.008087413385510445, 0.03619413077831268]"
1543504661067055912,'',,"""Drone1_pos""",,1543504661,66930119,"[1.0246400833129883, 0.008248524740338326, 0.03606325387954712]"
1543504661077196529,'',,"""Drone1_pos""",,1543504661,76955010,"[1.0246365070343018, 0.008371368981897831, 0.035960737615823746]"
1543504661087202909,'',,"""Drone1_pos""",,1543504661,87078577,"[1.0246760845184326, 0.008311060257256031, 0.035982053726911545]"
1543504661096955104,'',,"""Drone1_pos""",,1543504661,96861927,"[1.024672031402588, 0.008289254270493984, 0.035969898104667664]"
1543504661107495583,'',,"""Drone1_pos""",,1543504661,107033124,"[1.024612307548523, 0.00808346550911665, 0.03616591542959213]"
1543504661117257810,'',,"""Drone1_pos""",,1543504661,117047546,"[1.024637222290039, 0.008321227505803108, 0.03596644103527069]"
1543504661127408401,'',,"""Drone1_pos""",,1543504661,127259652,"[1.0246785879135132, 0.008314201608300209, 0.03597922995686531]"
1543504661137452177,'',,"""Drone1_pos""",,1543504661,137277596,"[1.0246741771697998, 0.008308046497404575, 0.035981643944978714]"
1543504661147022802,'',,"""Drone1_pos""",,1543504661,146950837,"[1.0246517658233643, 0.008087034337222576, 0.03615643084049225]"
1543504661157176204,'',,"""Drone1_pos""",,1543504661,157034616,"[1.0246578454971313, 0.008142950013279915, 0.03606745973229408]"
1543504661167239469,'',,"""Drone1_pos""",,1543504661,167063767,"[1.024670124053955, 0.008242902345955372, 0.036051832139492035]"
1543504661177166764,'',,"""Drone1_pos""",,1543504661,176995715,"[1.024667739868164, 0.008300493471324444, 0.03603949397802353]"
1543504661187173822,'',,"""Drone1_pos""",,1543504661,187002627,"[1.0246504545211792, 0.00804181583225727, 0.036242008209228516]"
1543504661197359183,'',,"""Drone1_pos""",,1543504661,197185101,"[1.0246583223342896, 0.008050900883972645, 0.03620786964893341]"
1543504661207180919,'',,"""Drone1_pos""",,1543504661,206982069,"[1.0246342420578003, 0.00823334138840437, 0.03604692593216896]"
1543504661217338016,'',,"""Drone1_pos""",,1543504661,217149730,"[1.0246639251708984, 0.008285089395940304, 0.036003511399030685]"
1543504661227279809,'',,"""Drone1_pos""",,1543504661,227070869,"[1.0246416330337524, 0.008120691403746605, 0.03616492822766304]"
1543504661237263232,'',,"""Drone1_pos""",,1543504661,237167100,"[1.0246479511260986, 0.008077382110059261, 0.03619509935379028]"
1543504661247006621,'',,"""Drone1_pos""",,1543504661,246928110,"[1.0246729850769043, 0.008275914937257767, 0.036001745611429214]"
1543504661257156437,'',,"""Drone1_pos""",,1543504661,257045174,"[1.0246697664260864, 0.008290346711874008, 0.03597789257764816]"
1543504661267023539,'',,"""Drone1_pos""",,1543504661,266911933,"[1.0246546268463135, 0.008289807476103306, 0.03600578382611275]"
1543504661277068034,'',,"""Drone1_pos""",,1543504661,276914770,"[1.0246269702911377, 0.008085575886070728, 0.03614617511630058]"
1543504661287333949,'',,"""Drone1_pos""",,1543504661,287218129,"[1.0246611833572388, 0.008300566114485264, 0.03597623482346535]"
1543504661297216680,'',,"""Drone1_pos""",,1543504661,297022061,"[1.024680733680725, 0.008313891477882862, 0.03597860038280487]"
1543504661307067870,'',,"""Drone1_pos""",,1543504661,306945676,"[1.0246695280075073, 0.008286412805318832, 0.0360049232840538]"
1543504661317334492,'',,"""Drone1_pos""",,1543504661,317212251,"[1.0246472358703613, 0.008362066000699997, 0.03591851145029068]"
1543504661327405731,'',,"""Drone1_pos""",,1543504661,327250061,"[1.0246391296386719, 0.008276425302028656, 0.0360126867890358]"
1543504661337378453,'',,"""Drone1_pos""",,1543504661,337251679,"[1.0246316194534302, 0.008352711796760559, 0.03593844547867775]"
1543504661347292425,'',,"""Drone1_pos""",,1543504661,347165549,"[1.0246626138687134, 0.008316516876220703, 0.0359509103000164]"
1543504661357259834,'',,"""Drone1_pos""",,1543504661,357092340,"[1.0246789455413818, 0.008323227055370808, 0.03599298745393753]"
1543504661367170967,'',,"""Drone1_pos""",,1543504661,367065405,"[1.0246832370758057, 0.008289044722914696, 0.03602726384997368]"
1543504661377368127,'',,"""Drone1_pos""",,1543504661,377171993,"[1.0246920585632324, 0.008270155638456345, 0.03602323308587074]"
1543504661387255725,'',,"""Drone1_pos""",,1543504661,387089542,"[1.0246806144714355, 0.008298943750560284, 0.0359930582344532]"
1543504661397073008,'',,"""Drone1_pos""",,1543504661,396958506,"[1.0246729850769043, 0.008297509513795376, 0.035995516926050186]"
1543504661407451064,'',,"""Drone1_pos""",,1543504661,407235369,"[1.024677038192749, 0.008276883512735367, 0.036017123609781265]"
1543504661417264762,'',,"""Drone1_pos""",,1543504661,417093116,"[1.0246573686599731, 0.00812290608882904, 0.03615878149867058]"
1543504661427204051,'',,"""Drone1_pos""",,1543504661,426993776,"[1.0246719121932983, 0.008257298730313778, 0.03600266948342323]"
1543504661437380272,'',,"""Drone1_pos""",,1543504661,437169846,"[1.0246572494506836, 0.008268737234175205, 0.035981472581624985]"
1543504661447254300,'',,"""Drone1_pos""",,1543504661,447032733,"[1.0246771574020386, 0.008277873508632183, 0.035980477929115295]"
1543504661457338660,'',,"""Drone1_pos""",,1543504661,457067679,"[1.0246888399124146, 0.008311175741255283, 0.0359792485833168]"
1543504661467218108,'',,"""Drone1_pos""",,1543504661,466905531,"[1.0246742963790894, 0.008317709900438786, 0.03598371893167496]"
1543504661477207577,'',,"""Drone1_pos""",,1543504661,477052486,"[1.0246697664260864, 0.00830666720867157, 0.036000531166791916]"
1543504661487192121,'',,"""Drone1_pos""",,1543504661,487083782,"[1.024622917175293, 0.00814132485538721, 0.036143139004707336]"
1543504661497022422,'',,"""Drone1_pos""",,1543504661,496910049,"[1.0246546268463135, 0.008331771939992905, 0.03594791516661644]"
1543504661506936001,'',,"""Drone1_pos""",,1543504661,506861646,"[1.024679183959961, 0.008312287740409374, 0.035985708236694336]"
1543504661517243024,'',,"""Drone1_pos""",,1543504661,517072586,"[1.0246845483779907, 0.008310007862746716, 0.03600560128688812]"
1543504661527203365,'',,"""Drone1_pos""",,1543504661,527009829,"[1.0246669054031372, 0.008301302790641785, 0.03598536178469658]"
1543504661537258645,'',,"""Drone1_pos""",,1543504661,537133152,"[1.024672031402588, 0.008194596506655216, 0.03605794534087181]"
1543504661547086205,'',,"""Drone1_pos""",,1543504661,546963691,"[1.0246710777282715, 0.008286280557513237, 0.036007508635520935]"
1543504661557266913,'',,"""Drone1_pos""",,1543504661,557185901,"[1.0246891975402832, 0.008308016695082188, 0.03597851097583771]"
1543504661567092023,'',,"""Drone1_pos""",,1543504661,566975409,"[1.0246845483779907, 0.008287206292152405, 0.03598659113049507]"
1543504661577896290,'',,"""Drone1_pos""",,1543504661,577723165,"[1.024673581123352, 0.008288402110338211, 0.035986218601465225]"
1543504661587381408,'',,"""Drone1_pos""",,1543504661,587288192,"[1.0246762037277222, 0.008247540332376957, 0.03600222244858742]"
1543504661597290672,'',,"""Drone1_pos""",,1543504661,597165272,"[1.0246533155441284, 0.008360100910067558, 0.03591101989150047]"
1543504661607324590,'',,"""Drone1_pos""",,1543504661,606959538,"[1.024685025215149, 0.008309834636747837, 0.03597427159547806]"
1543504661617164968,'',,"""Drone1_pos""",,1543504661,617007166,"[1.024682641029358, 0.008316036313772202, 0.0359513945877552]"
1543504661627448667,'',,"""Drone1_pos""",,1543504661,627178691,"[1.0246500968933105, 0.008279469795525074, 0.035971175879240036]"
1543504661637329370,'',,"""Drone1_pos""",,1543504661,637175972,"[1.0246256589889526, 0.008273237384855747, 0.03601062297821045]"
1543504661647309510,'',,"""Drone1_pos""",,1543504661,647053979,"[1.0246310234069824, 0.008287512697279453, 0.03599545359611511]"
1543504661657425695,'',,"""Drone1_pos""",,1543504661,657213091,"[1.0246549844741821, 0.008303923532366753, 0.03599851578474045]"
1543504661667205855,'',,"""Drone1_pos""",,1543504661,666995721,"[1.0246717929840088, 0.008318264037370682, 0.03599199652671814]"
1543504661677328117,'',,"""Drone1_pos""",,1543504661,677151855,"[1.0246700048446655, 0.008307861164212227, 0.03598645329475403]"
1543504661687229806,'',,"""Drone1_pos""",,1543504661,687095076,"[1.0246580839157104, 0.008048214949667454, 0.03618282824754715]"
1543504661697063705,'',,"""Drone1_pos""",,1543504661,696957364,"[1.0246261358261108, 0.00823242124170065, 0.03602883592247963]"
1543504661707431852,'',,"""Drone1_pos""",,1543504661,707138929,"[1.024674892425537, 0.008289555087685585, 0.036010898649692535]"
1543504661717056103,'',,"""Drone1_pos""",,1543504661,716954548,"[1.0246888399124146, 0.00831165537238121, 0.035975586622953415]"
1543504661727376323,'',,"""Drone1_pos""",,1543504661,727239660,"[1.0246845483779907, 0.008296421729028225, 0.035971082746982574]"
1543504661737452975,'',,"""Drone1_pos""",,1543504661,737275087,"[1.0246694087982178, 0.008172191679477692, 0.03606763482093811]"
1543504661747044588,'',,"""Drone1_pos""",,1543504661,746897381,"[1.0246514081954956, 0.008323666639626026, 0.03592033311724663]"
1543504661757131647,'',,"""Drone1_pos""",,1543504661,756992451,"[1.0246859788894653, 0.008295205421745777, 0.035975970327854156]"
1543504661767319447,'',,"""Drone1_pos""",,1543504661,767199336,"[1.024683952331543, 0.008312813006341457, 0.03597048670053482]"
1543504661777258100,'',,"""Drone1_pos""",,1543504661,777108210,"[1.0246765613555908, 0.00828264094889164, 0.035993244498968124]"
1543504661787237373,'',,"""Drone1_pos""",,1543504661,787116291,"[1.024654507637024, 0.008064918220043182, 0.03616109862923622]"
1543504661797534090,'',,"""Drone1_pos""",,1543504661,797385081,"[1.0246620178222656, 0.008314389735460281, 0.035960227251052856]"
1543504661807297206,'',,"""Drone1_pos""",,1543504661,807169507,"[1.0246875286102295, 0.008284310810267925, 0.036008525639772415]"
1543504661817023635,'',,"""Drone1_pos""",,1543504661,816902500,"[1.024688959121704, 0.008315274491906166, 0.0359940342605114]"
1543504661827120006,'',,"""Drone1_pos""",,1543504661,827013803,"[1.024674415588379, 0.008317777886986732, 0.03598083183169365]"
1543504661837361616,'',,"""Drone1_pos""",,1543504661,837218455,"[1.0246458053588867, 0.00827726162970066, 0.03601095825433731]"
1543504661846988439,'',,"""Drone1_pos""",,1543504661,846858527,"[1.0246652364730835, 0.008332855068147182, 0.03596484661102295]"
1543504661857298773,'',,"""Drone1_pos""",,1543504661,857116504,"[1.024675726890564, 0.008344482630491257, 0.03597129508852959]"
1543504661866950436,'',,"""Drone1_pos""",,1543504661,866774670,"[1.0246717929840088, 0.008304896764457226, 0.03598504886031151]"
1543504661877177261,'',,"""Drone1_pos""",,1543504661,877066556,"[1.0246778726577759, 0.008205792866647243, 0.0360432043671608]"
1543504661887149651,'',,"""Drone1_pos""",,1543504661,886882084,"[1.0246782302856445, 0.008247511461377144, 0.03599981591105461]"
1543504661897317721,'',,"""Drone1_pos""",,1543504661,897137544,"[1.024652123451233, 0.008324154652655125, 0.03596639260649681]"
1543504661907336936,'',,"""Drone1_pos""",,1543504661,907127768,"[1.0246769189834595, 0.008257732726633549, 0.03604597598314285]"
1543504661917179670,'',,"""Drone1_pos""",,1543504661,916975068,"[1.0246738195419312, 0.008291110396385193, 0.03597167506814003]"
1543504661927555166,'',,"""Drone1_pos""",,1543504661,927366782,"[1.0246795415878296, 0.008316661231219769, 0.03596111387014389]"
1543504661937328982,'',,"""Drone1_pos""",,1543504661,937239626,"[1.024683952331543, 0.008316434919834137, 0.03596796095371246]"
1543504661947364507,'',,"""Drone1_pos""",,1543504661,947191611,"[1.0246617794036865, 0.008239551447331905, 0.035999834537506104]"
1543504661957332852,'',,"""Drone1_pos""",,1543504661,957160186,"[1.024662733078003, 0.008194436319172382, 0.03609173744916916]"
1543504661967087602,'',,"""Drone1_pos""",,1543504661,966908855,"[1.0246490240097046, 0.00836528092622757, 0.03592124953866005]"
1543504661977190539,'',,"""Drone1_pos""",,1543504661,977031604,"[1.0246754884719849, 0.008327757939696312, 0.03600427508354187]"
1543504661987329017,'',,"""Drone1_pos""",,1543504661,987213407,"[1.024688720703125, 0.008317738771438599, 0.03597595542669296]"
1543504661997134329,'',,"""Drone1_pos""",,1543504661,996979167,"[1.0246597528457642, 0.008091146126389503, 0.036160677671432495]"
1543504662007171623,'',,"""Drone1_pos""",,1543504662,6985109,"[1.0246602296829224, 0.008161642588675022, 0.036106377840042114]"
1543504662016884564,'',,"""Drone1_pos""",,1543504662,16778143,"[1.0246591567993164, 0.008311078883707523, 0.03600655868649483]"
1543504662027003704,'',,"""Drone1_pos""",,1543504662,26895873,"[1.024674415588379, 0.008321394212543964, 0.035990163683891296]"
1543504662037084865,'',,"""Drone1_pos""",,1543504662,36982772,"[1.0246515274047852, 0.008099167607724667, 0.03616531938314438]"
1543504662046849668,'',,"""Drone1_pos""",,1543504662,46754883,"[1.0246816873550415, 0.008218170143663883, 0.03600498288869858]"
1543504662057177862,'',,"""Drone1_pos""",,1543504662,57076881,"[1.024651288986206, 0.00823887623846531, 0.036002036184072495]"
1543504662066884075,'',,"""Drone1_pos""",,1543504662,66761376,"[1.0246602296829224, 0.008310330100357533, 0.03593342751264572]"
1543504662077164489,'',,"""Drone1_pos""",,1543504662,76957266,"[1.024661898612976, 0.008324632421135902, 0.03594401106238365]"
1543504662087303563,'',,"""Drone1_pos""",,1543504662,87144670,"[1.0246765613555908, 0.008289210498332977, 0.03596315532922745]"
1543504662097328122,'',,"""Drone1_pos""",,1543504662,96973935,"[1.0246909856796265, 0.008289918303489685, 0.03595922142267227]"
1543504662107444836,'',,"""Drone1_pos""",,1543504662,107037378,"[1.0246641635894775, 0.008330115117132664, 0.03591959550976753]"
1543504662117504882,'',,"""Drone1_pos""",,1543504662,117286716,"[1.0246657133102417, 0.008192615583539009, 0.036062758415937424]"
1543504662127135940,'',,"""Drone1_pos""",,1543504662,126938258,"[1.024673581123352, 0.008289514109492302, 0.03600218892097473]"
1543504662137259810,'',,"""Drone1_pos""",,1543504662,137040038,"[1.0246927738189697, 0.008284829556941986, 0.035980772227048874]"
1543504662147188578,'',,"""Drone1_pos""",,1543504662,146997808,"[1.0246509313583374, 0.008327155373990536, 0.03591221943497658]"
1543504662157305108,'',,"""Drone1_pos""",,1543504662,157127571,"[1.0246636867523193, 0.008275780826807022, 0.03598994389176369]"
1543504662167427022,'',,"""Drone1_pos""",,1543504662,167238088,"[1.0246047973632812, 0.008044448681175709, 0.03621276840567589]"
1543504662177385181,'',,"""Drone1_pos""",,1543504662,177225367,"[1.0246862173080444, 0.00828042533248663, 0.036027319729328156]"
1543504662187471370,'',,"""Drone1_pos""",,1543504662,187257835,"[1.0246686935424805, 0.008308688178658485, 0.03598347306251526]"
1543504662197204889,'',,"""Drone1_pos""",,1543504662,196938595,"[1.0246635675430298, 0.008297950029373169, 0.03596995770931244]"
1543504662207138727,'',,"""Drone1_pos""",,1543504662,206966984,"[1.0246872901916504, 0.008285610936582088, 0.03600022941827774]"
1543504662217028658,'',,"""Drone1_pos""",,1543504662,216870010,"[1.0246546268463135, 0.00836109183728695, 0.035914912819862366]"
1543504662227076597,'',,"""Drone1_pos""",,1543504662,226967902,"[1.0246716737747192, 0.00832977332174778, 0.03593940660357475]"
1543504662237304978,'',,"""Drone1_pos""",,1543504662,237108095,"[1.0246696472167969, 0.008313097059726715, 0.03594832122325897]"
1543504662247072684,'',,"""Drone1_pos""",,1543504662,246898876,"[1.0246762037277222, 0.008202016353607178, 0.03603701293468475]"
1543504662257362662,'',,"""Drone1_pos""",,1543504662,257169826,"[1.0246566534042358, 0.00818978063762188, 0.0360584631562233]"
1543504662266973022,'',,"""Drone1_pos""",,1543504662,266879104,"[1.0246740579605103, 0.008247017860412598, 0.036013271659612656]"
1543504662277156405,'',,"""Drone1_pos""",,1543504662,277034719,"[1.024686574935913, 0.008282363414764404, 0.036000415682792664]"
1543504662287101313,'',,"""Drone1_pos""",,1543504662,286957704,"[1.0246679782867432, 0.008284839801490307, 0.036004651337862015]"
1543504662297270536,'',,"""Drone1_pos""",,1543504662,297132719,"[1.024678111076355, 0.008274502120912075, 0.035992104560136795]"
1543504662307056970,'',,"""Drone1_pos""",,1543504662,306927497,"[1.0246859788894653, 0.00827151071280241, 0.036021843552589417]"
1543504662317179006,'',,"""Drone1_pos""",,1543504662,316956811,"[1.0246574878692627, 0.008386822417378426, 0.03592551872134209]"
1543504662327222368,'',,"""Drone1_pos""",,1543504662,327035379,"[1.024661898612976, 0.008335339836776257, 0.03596081957221031]"
1543504662337063182,'',,"""Drone1_pos""",,1543504662,336951629,"[1.0246758460998535, 0.008325758390128613, 0.03596720099449158]"
1543504662347068896,'',,"""Drone1_pos""",,1543504662,346913285,"[1.0246751308441162, 0.008297249674797058, 0.035985857248306274]"
1543504662357565374,'',,"""Drone1_pos""",,1543504662,357284556,"[1.024681568145752, 0.008268585428595543, 0.035991325974464417]"
1543504662367116582,'',,"""Drone1_pos""",,1543504662,366999637,"[1.0246855020523071, 0.008281187154352665, 0.036007821559906006]"
1543504662377409854,'',,"""Drone1_pos""",,1543504662,377164562,"[1.0246703624725342, 0.008310905657708645, 0.036015819758176804]"
1543504662387531198,'',,"""Drone1_pos""",,1543504662,387089502,"[1.0246777534484863, 0.008278627879917622, 0.036025404930114746]"
1543504662397111231,'',,"""Drone1_pos""",,1543504662,396985116,"[1.0246837139129639, 0.008305505849421024, 0.03600300848484039]"
1543504662407122104,'',,"""Drone1_pos""",,1543504662,407020601,"[1.0246821641921997, 0.008290491998195648, 0.03600180894136429]"
1543504662417116429,'',,"""Drone1_pos""",,1543504662,417000882,"[1.0246809720993042, 0.00828398484736681, 0.03602238744497299]"
1543504662427134032,'',,"""Drone1_pos""",,1543504662,427013735,"[1.0246638059616089, 0.008300051093101501, 0.035981662571430206]"
1543504662437366257,'',,"""Drone1_pos""",,1543504662,437182446,"[1.024682879447937, 0.008297570049762726, 0.036001965403556824]"
1543504662447080235,'',,"""Drone1_pos""",,1543504662,446910971,"[1.0246930122375488, 0.008306694217026234, 0.036001045256853104]"
1543504662456981395,'',,"""Drone1_pos""",,1543504662,456849538,"[1.0246680974960327, 0.008307218551635742, 0.03597898408770561]"
1543504662467174196,'',,"""Drone1_pos""",,1543504662,466985468,"[1.0246750116348267, 0.008309879340231419, 0.03595475107431412]"
1543504662477066015,'',,"""Drone1_pos""",,1543504662,476889559,"[1.0246877670288086, 0.008280743844807148, 0.03599991276860237]"
1543504662487117212,'',,"""Drone1_pos""",,1543504662,486839753,"[1.024685025215149, 0.008277799002826214, 0.035981692373752594]"
1543504662497319992,'',,"""Drone1_pos""",,1543504662,497092636,"[1.0246741771697998, 0.00828875508159399, 0.03597128763794899]"
1543504662507382927,'',,"""Drone1_pos""",,1543504662,507113909,"[1.0246756076812744, 0.008296101354062557, 0.0359884612262249]"
1543504662517127917,'',,"""Drone1_pos""",,1543504662,516961530,"[1.0246670246124268, 0.008269274607300758, 0.035988204181194305]"
1543504662527123550,'',,"""Drone1_pos""",,1543504662,526908864,"[1.0246773958206177, 0.008264856413006783, 0.035976115614175797]"
1543504662537396273,'',,"""Drone1_pos""",,1543504662,537286806,"[1.0246978998184204, 0.008283332921564579, 0.035989176481962204]"
1543504662547329868,'',,"""Drone1_pos""",,1543504662,547105931,"[1.0246859788894653, 0.008266723714768887, 0.03599188104271889]"
1543504662557216340,'',,"""Drone1_pos""",,1543504662,557135908,"[1.024672508239746, 0.00827628094702959, 0.03597395867109299]"
1543504662567231771,'',,"""Drone1_pos""",,1543504662,567107449,"[1.0246742963790894, 0.00828071590512991, 0.03599259629845619]"
1543504662577052572,'',,"""Drone1_pos""",,1543504662,576934682,"[1.0246922969818115, 0.008296607993543148, 0.035990431904792786]"
1543504662587258488,'',,"""Drone1_pos""",,1543504662,587066325,"[1.0246671438217163, 0.008244786411523819, 0.036007240414619446]"
1543504662597042722,'',,"""Drone1_pos""",,1543504662,596869306,"[1.0246669054031372, 0.008309446275234222, 0.03598197549581528]"
1543504662607080293,'',,"""Drone1_pos""",,1543504662,606969940,"[1.0246810913085938, 0.008311488665640354, 0.035991836339235306]"
1543504662617147020,'',,"""Drone1_pos""",,1543504662,616959295,"[1.0246793031692505, 0.00828066561371088, 0.036015864461660385]"
1543504662627200239,'',,"""Drone1_pos""",,1543504662,626977670,"[1.0247012376785278, 0.008278305642306805, 0.03598897159099579]"
1543504662637096863,'',,"""Drone1_pos""",,1543504662,636960449,"[1.0246891975402832, 0.008310400880873203, 0.03598689287900925]"
1543504662647108666,'',,"""Drone1_pos""",,1543504662,646955090,"[1.0246405601501465, 0.008272695355117321, 0.03599999099969864]"
1543504662657296308,'',,"""Drone1_pos""",,1543504662,657176943,"[1.024669885635376, 0.008261280134320259, 0.03600095957517624]"
1543504662667191053,'',,"""Drone1_pos""",,1543504662,667001374,"[1.0246831178665161, 0.008290059864521027, 0.035981446504592896]"
1543504662677175556,'',,"""Drone1_pos""",,1543504662,676971221,"[1.0246824026107788, 0.00830827932804823, 0.03599478676915169]"
1543504662687044492,'',,"""Drone1_pos""",,1543504662,686921137,"[1.024675965309143, 0.008283405564725399, 0.035983260720968246]"
1543504662697080300,'',,"""Drone1_pos""",,1543504662,696819315,"[1.0246676206588745, 0.008271506987512112, 0.03598065301775932]"
1543504662707279659,'',,"""Drone1_pos""",,1543504662,707056632,"[1.0246522426605225, 0.008087720721960068, 0.0361703522503376]"
1543504662717073418,'',,"""Drone1_pos""",,1543504662,716933155,"[1.0246459245681763, 0.00826925691217184, 0.03600742667913437]"
1543504662727438852,'',,"""Drone1_pos""",,1543504662,727173826,"[1.0246832370758057, 0.008324742317199707, 0.03599086031317711]"
1543504662737113039,'',,"""Drone1_pos""",,1543504662,736946159,"[1.024681568145752, 0.008302795700728893, 0.035988699644804]"
1543504662747224462,'',,"""Drone1_pos""",,1543504662,747063019,"[1.0246602296829224, 0.008305666036903858, 0.035950496792793274]"
1543504662757097182,'',,"""Drone1_pos""",,1543504662,756964911,"[1.0246796607971191, 0.008221359923481941, 0.03600623458623886]"
1543504662767167575,'',,"""Drone1_pos""",,1543504662,767011753,"[1.0246591567993164, 0.008340639062225819, 0.035925816744565964]"
1543504662777105436,'',,"""Drone1_pos""",,1543504662,776992891,"[1.0246789455413818, 0.008301411755383015, 0.03597066178917885]"
1543504662787332070,'',,"""Drone1_pos""",,1543504662,787176463,"[1.0246796607971191, 0.00826373603194952, 0.03597994148731232]"
1543504662797039584,'',,"""Drone1_pos""",,1543504662,796854632,"[1.0246608257293701, 0.008069309405982494, 0.0361623652279377]"
1543504662807206722,'',,"""Drone1_pos""",,1543504662,807042932,"[1.024661660194397, 0.008315430022776127, 0.035965271294116974]"
1543504662817077535,'',,"""Drone1_pos""",,1543504662,816956294,"[1.024691104888916, 0.008267801254987717, 0.035992253571748734]"
1543504662827072170,'',,"""Drone1_pos""",,1543504662,826942850,"[1.0246882438659668, 0.008312459103763103, 0.035972945392131805]"
1543504662837426950,'',,"""Drone1_pos""",,1543504662,837256368,"[1.0246896743774414, 0.008310951292514801, 0.03596463426947594]"
1543504662847271554,'',,"""Drone1_pos""",,1543504662,847106642,"[1.0246254205703735, 0.00808387529104948, 0.03615614399313927]"
1543504662857586818,'',,"""Drone1_pos""",,1543504662,857379230,"[1.0246407985687256, 0.008296064101159573, 0.03595086187124252]"
1543504662867098505,'',,"""Drone1_pos""",,1543504662,866881170,"[1.024672508239746, 0.008346780203282833, 0.03596462309360504]"
1543504662877189828,'',,"""Drone1_pos""",,1543504662,877039810,"[1.0246845483779907, 0.008319596759974957, 0.03598526120185852]"
1543504662887197672,'',,"""Drone1_pos""",,1543504662,887107131,"[1.0246798992156982, 0.008288046345114708, 0.03598962351679802]"
1543504662897204989,'',,"""Drone1_pos""",,1543504662,896910818,"[1.024681806564331, 0.00829380378127098, 0.03599894791841507]"
1543504662907196982,'',,"""Drone1_pos""",,1543504662,907055392,"[1.0246589183807373, 0.008329138159751892, 0.035940542817115784]"
1543504662918845482,'',,"""Drone1_pos""",,1543504662,916960240,"[1.0246676206588745, 0.008284052833914757, 0.03599587455391884]"
1543504662927062512,'',,"""Drone1_pos""",,1543504662,926955361,"[1.0246632099151611, 0.008112233132123947, 0.03615448996424675]"
1543504662937239077,'',,"""Drone1_pos""",,1543504662,937032101,"[1.0246800184249878, 0.008271188475191593, 0.035994429141283035]"
1543504662947105131,'',,"""Drone1_pos""",,1543504662,946864169,"[1.0246779918670654, 0.008280984126031399, 0.03600794076919556]"
1543504662957395544,'',,"""Drone1_pos""",,1543504662,957261348,"[1.024662733078003, 0.008339157328009605, 0.03596172109246254]"
1543504662967061282,'',,"""Drone1_pos""",,1543504662,966957921,"[1.0246564149856567, 0.00833375658839941, 0.03592004254460335]"
1543504662977250455,'',,"""Drone1_pos""",,1543504662,977058404,"[1.0246624946594238, 0.00808772724121809, 0.036161158233881]"
1543504662987136589,'',,"""Drone1_pos""",,1543504662,987005877,"[1.0246752500534058, 0.008271167986094952, 0.03600671514868736]"
1543504662997131474,'',,"""Drone1_pos""",,1543504662,996859297,"[1.0246827602386475, 0.008293021470308304, 0.03598698601126671]"
1543504663007173296,'',,"""Drone1_pos""",,1543504663,7020722,"[1.0246578454971313, 0.008310751989483833, 0.03591477870941162]"
1543504663017248337,'',,"""Drone1_pos""",,1543504663,17131578,"[1.0246679782867432, 0.00829806737601757, 0.03599633276462555]"
1543504663027164933,'',,"""Drone1_pos""",,1543504663,27020833,"[1.0246533155441284, 0.008080432191491127, 0.03618834912776947]"
1543504663037156560,'',,"""Drone1_pos""",,1543504663,37064433,"[1.0246895551681519, 0.0081856157630682, 0.03606079891324043]"
1543504663047347922,'',,"""Drone1_pos""",,1543504663,47193851,"[1.0246520042419434, 0.008251836523413658, 0.036004211753606796]"
1543504663057408200,'',,"""Drone1_pos""",,1543504663,57226212,"[1.0246607065200806, 0.008287805132567883, 0.03598986938595772]"
1543504663067217473,'',,"""Drone1_pos""",,1543504663,66965654,"[1.0246658325195312, 0.008294873870909214, 0.03600942716002464]"
1543504663077213548,'',,"""Drone1_pos""",,1543504663,77092364,"[1.0246829986572266, 0.008279113098978996, 0.036006662994623184]"
1543504663087132529,'',,"""Drone1_pos""",,1543504663,86970127,"[1.0246614217758179, 0.008088170550763607, 0.03618805855512619]"
1543504663097518881,'',,"""Drone1_pos""",,1543504663,97289104,"[1.0246526002883911, 0.008060339838266373, 0.03617516905069351]"
1543504663107319251,'',,"""Drone1_pos""",,1543504663,107183039,"[1.0246530771255493, 0.008295789361000061, 0.03593404218554497]"
1543504663117216347,'',,"""Drone1_pos""",,1543504663,116999412,"[1.0246778726577759, 0.00827205553650856, 0.03599749878048897]"
1543504663127024169,'',,"""Drone1_pos""",,1543504663,126932695,"[1.0246766805648804, 0.00828187819570303, 0.03603076562285423]"
1543504663136936468,'',,"""Drone1_pos""",,1543504663,136826130,"[1.0246587991714478, 0.008243334479629993, 0.036087796092033386]"
1543504663147141734,'',,"""Drone1_pos""",,1543504663,146965083,"[1.024672508239746, 0.008303954266011715, 0.03602724149823189]"
1543504663157158172,'',,"""Drone1_pos""",,1543504663,156992835,"[1.0246914625167847, 0.008313758298754692, 0.03599429875612259]"
1543504663167183786,'',,"""Drone1_pos""",,1543504663,167054509,"[1.024682641029358, 0.008263914845883846, 0.03600645065307617]"
1543504663177229668,'',,"""Drone1_pos""",,1543504663,177111509,"[1.0246473550796509, 0.008261112496256828, 0.036016225814819336]"
1543504663187075112,'',,"""Drone1_pos""",,1543504663,186938734,"[1.0246555805206299, 0.008079668506979942, 0.03619730472564697]"
1543504663197020039,'',,"""Drone1_pos""",,1543504663,196841939,"[1.0246487855911255, 0.008334817364811897, 0.035978879779577255]"
1543504663207217008,'',,"""Drone1_pos""",,1543504663,207075908,"[1.0246838331222534, 0.008289193734526634, 0.03595108911395073]"
1543504663217014029,'',,"""Drone1_pos""",,1543504663,216856094,"[1.0246729850769043, 0.008275014348328114, 0.03598521277308464]"
1543504663227065349,'',,"""Drone1_pos""",,1543504663,226943634,"[1.024680256843567, 0.008267130702733994, 0.036023858934640884]"
1543504663237215560,'',,"""Drone1_pos""",,1543504663,237013638,"[1.0246442556381226, 0.008272839710116386, 0.03601054474711418]"
1543504663247058131,'',,"""Drone1_pos""",,1543504663,246965513,"[1.0246663093566895, 0.008323203772306442, 0.036009497940540314]"
1543504663257012592,'',,"""Drone1_pos""",,1543504663,256864330,"[1.02467679977417, 0.008300329558551311, 0.035971734672784805]"
1543504663266925317,'',,"""Drone1_pos""",,1543504663,266828312,"[1.0246814489364624, 0.008267202414572239, 0.035981424152851105]"
1543504663276985764,'',,"""Drone1_pos""",,1543504663,276865993,"[1.0246646404266357, 0.008053715340793133, 0.03618750721216202]"
1543504663287045268,'',,"""Drone1_pos""",,1543504663,286933361,"[1.0246803760528564, 0.008277769200503826, 0.03603864461183548]"
1543504663297156102,'',,"""Drone1_pos""",,1543504663,296987622,"[1.0246745347976685, 0.008306068368256092, 0.03597372770309448]"
1543504663307110162,'',,"""Drone1_pos""",,1543504663,307002237,"[1.02467942237854, 0.008301558904349804, 0.03598015010356903]"
1543504663317101010,'',,"""Drone1_pos""",,1543504663,316961405,"[1.024679183959961, 0.008303736336529255, 0.035982660949230194]"
1543504663326998086,'',,"""Drone1_pos""",,1543504663,326818382,"[1.0246765613555908, 0.008295809850096703, 0.03599415346980095]"
1543504663337329579,'',,"""Drone1_pos""",,1543504663,337149112,"[1.024671196937561, 0.00827314518392086, 0.03598346933722496]"
1543504663347090696,'',,"""Drone1_pos""",,1543504663,346989097,"[1.0246756076812744, 0.008266101591289043, 0.03601328656077385]"
1543504663357234343,'',,"""Drone1_pos""",,1543504663,356993815,"[1.024665355682373, 0.00832670833915472, 0.03600132465362549]"
1543504663366955586,'',,"""Drone1_pos""",,1543504663,366842072,"[1.0246906280517578, 0.00829403381794691, 0.03599243611097336]"
1543504663377111767,'',,"""Drone1_pos""",,1543504663,377017039,"[1.024685263633728, 0.00821864977478981, 0.03605303913354874]"
1543504663387180795,'',,"""Drone1_pos""",,1543504663,387032154,"[1.0246810913085938, 0.008281371556222439, 0.036016613245010376]"
1543504663397256367,'',,"""Drone1_pos""",,1543504663,397060262,"[1.0246549844741821, 0.008079241029918194, 0.03622370958328247]"
1543504663407056465,'',,"""Drone1_pos""",,1543504663,406951888,"[1.0246583223342896, 0.00818794034421444, 0.03611275926232338]"
1543504663417143728,'',,"""Drone1_pos""",,1543504663,417042657,"[1.0246740579605103, 0.008226492442190647, 0.03606856241822243]"
1543504663427249136,'',,"""Drone1_pos""",,1543504663,427092179,"[1.0246795415878296, 0.008280961774289608, 0.036000076681375504]"
1543504663437230052,'',,"""Drone1_pos""",,1543504663,437124241,"[1.0246946811676025, 0.008272850885987282, 0.036004889756441116]"
1543504663447275364,'',,"""Drone1_pos""",,1543504663,447092140,"[1.0246601104736328, 0.008085130713880062, 0.03621804714202881]"
1543504663457315937,'',,"""Drone1_pos""",,1543504663,457135411,"[1.0246188640594482, 0.008066507987678051, 0.036202121526002884]"
1543504663467103587,'',,"""Drone1_pos""",,1543504663,466926979,"[1.0246577262878418, 0.008275521919131279, 0.03602803871035576]"
1543504663477052713,'',,"""Drone1_pos""",,1543504663,476947175,"[1.0246878862380981, 0.008306697010993958, 0.03599199652671814]"
1543504663487755129,'',,"""Drone1_pos""",,1543504663,486902666,"[1.0246831178665161, 0.008284286595880985, 0.03598848730325699]"
1543504663497178085,'',,"""Drone1_pos""",,1543504663,496985958,"[1.0246578454971313, 0.008075451478362083, 0.036175258457660675]"
1543504663507255119,'',,"""Drone1_pos""",,1543504663,507106642,"[1.0246673822402954, 0.00828135572373867, 0.0360112227499485]"
1543504663517384108,'',,"""Drone1_pos""",,1543504663,516936715,"[1.0246790647506714, 0.008286625146865845, 0.03599885478615761]"
1543504663527305125,'',,"""Drone1_pos""",,1543504663,526926560,"[1.0246915817260742, 0.00830164272338152, 0.035993192344903946]"
1543504663537152675,'',,"""Drone1_pos""",,1543504663,536904602,"[1.024690866470337, 0.008230933919548988, 0.036053162068128586]"
1543504663547053875,'',,"""Drone1_pos""",,1543504663,546939986,"[1.0246881246566772, 0.00822173710912466, 0.03602393716573715]"
1543504663556947132,'',,"""Drone1_pos""",,1543504663,556812328,"[1.0246609449386597, 0.008334103040397167, 0.03594948723912239]"
1543504663566900480,'',,"""Drone1_pos""",,1543504663,566737808,"[1.0246857404708862, 0.008306633681058884, 0.035987209528684616]"
1543504663577355109,'',,"""Drone1_pos""",,1543504663,577216014,"[1.0246901512145996, 0.008330726996064186, 0.03596694394946098]"
1543504663587165598,'',,"""Drone1_pos""",,1543504663,587013240,"[1.0246782302856445, 0.00827561691403389, 0.03597573563456535]"
1543504663597084959,'',,"""Drone1_pos""",,1543504663,596932507,"[1.0246583223342896, 0.008172521367669106, 0.036078158766031265]"
1543504663607160189,'',,"""Drone1_pos""",,1543504663,607052891,"[1.0246758460998535, 0.008276768028736115, 0.0359966866672039]"
1543504663617111628,'',,"""Drone1_pos""",,1543504663,616994078,"[1.0246776342391968, 0.008306492120027542, 0.0360129177570343]"
1543504663627056635,'',,"""Drone1_pos""",,1543504663,626945480,"[1.024686336517334, 0.008319488726556301, 0.03600611537694931]"
1543504663637171905,'',,"""Drone1_pos""",,1543504663,637053833,"[1.0246694087982178, 0.008091594092547894, 0.03616725280880928]"
1543504663647260628,'',,"""Drone1_pos""",,1543504663,647046387,"[1.0246917009353638, 0.008205068297684193, 0.03603328391909599]"
1543504663657241460,'',,"""Drone1_pos""",,1543504663,656923861,"[1.0246546268463135, 0.008318710140883923, 0.03592069074511528]"
1543504663666996761,'',,"""Drone1_pos""",,1543504663,666864184,"[1.0246796607971191, 0.008293005637824535, 0.03600490838289261]"
1543504663677113639,'',,"""Drone1_pos""",,1543504663,676953659,"[1.024686336517334, 0.008334571495652199, 0.035982053726911545]"
1543504663687111542,'',,"""Drone1_pos""",,1543504663,686996611,"[1.0246824026107788, 0.008270368911325932, 0.035983212292194366]"
1543504663697108686,'',,"""Drone1_pos""",,1543504663,696961658,"[1.0246893167495728, 0.008271925151348114, 0.03596828505396843]"
1543504663707206392,'',,"""Drone1_pos""",,1543504663,707079471,"[1.024693489074707, 0.008264848031103611, 0.03600431978702545]"
1543504663716997865,'',,"""Drone1_pos""",,1543504663,716828699,"[1.0246793031692505, 0.008271127939224243, 0.036020368337631226]"
1543504663726957044,'',,"""Drone1_pos""",,1543504663,726865815,"[1.0246697664260864, 0.008283024653792381, 0.036002613604068756]"
1543504663737182919,'',,"""Drone1_pos""",,1543504663,737092032,"[1.0246936082839966, 0.00829568225890398, 0.03598327562212944]"
1543504663747057991,'',,"""Drone1_pos""",,1543504663,746953724,"[1.0246881246566772, 0.008279183879494667, 0.03596712276339531]"
1543504663757049406,'',,"""Drone1_pos""",,1543504663,756938227,"[1.0246715545654297, 0.00827198475599289, 0.03600498288869858]"
1543504663767053965,'',,"""Drone1_pos""",,1543504663,766884010,"[1.0246692895889282, 0.00829209852963686, 0.03599262610077858]"
1543504663776942379,'',,"""Drone1_pos""",,1543504663,776816471,"[1.0246754884719849, 0.008288008160889149, 0.03599104285240173]"
1543504663787084527,'',,"""Drone1_pos""",,1543504663,786930833,"[1.024674892425537, 0.008329415693879128, 0.03600709140300751]"
1543504663797013667,'',,"""Drone1_pos""",,1543504663,796862375,"[1.0246816873550415, 0.00829777680337429, 0.03597863018512726]"
1543504663806973358,'',,"""Drone1_pos""",,1543504663,806803359,"[1.0246576070785522, 0.008313353173434734, 0.03592495247721672]"
1543504663817247988,'',,"""Drone1_pos""",,1543504663,816997554,"[1.0246468782424927, 0.008079337887465954, 0.03617101162672043]"
1543504663827170140,'',,"""Drone1_pos""",,1543504663,826849891,"[1.0246829986572266, 0.008260753937065601, 0.03602130711078644]"
1543504663837006696,'',,"""Drone1_pos""",,1543504663,836876387,"[1.0246940851211548, 0.008327002637088299, 0.03599771484732628]"
1543504663847224508,'',,"""Drone1_pos""",,1543504663,847031419,"[1.0246844291687012, 0.008272112347185612, 0.035977743566036224]"
1543504663856964374,'',,"""Drone1_pos""",,1543504663,856834198,"[1.024694561958313, 0.008221778087317944, 0.03601640462875366]"
1543504663867100487,'',,"""Drone1_pos""",,1543504663,866996440,"[1.024654507637024, 0.008240235038101673, 0.036018382757902145]"
1543504663877048169,'',,"""Drone1_pos""",,1543504663,876900870,"[1.0246695280075073, 0.008283277973532677, 0.03601525351405144]"
1543504663887017791,'',,"""Drone1_pos""",,1543504663,886885032,"[1.0246878862380981, 0.008320881985127926, 0.036004770547151566]"
1543504663897071917,'',,"""Drone1_pos""",,1543504663,896897169,"[1.0246682167053223, 0.00811807531863451, 0.036193665117025375]"
1543504663907009148,'',,"""Drone1_pos""",,1543504663,906846420,"[1.0246458053588867, 0.008330895565450191, 0.03594076633453369]"
1543504663917228474,'',,"""Drone1_pos""",,1543504663,917045084,"[1.0246549844741821, 0.008317474275827408, 0.03593341261148453]"
1543504663927137520,'',,"""Drone1_pos""",,1543504663,926947669,"[1.0246649980545044, 0.008287019096314907, 0.03600381687283516]"
1543504663937233459,'',,"""Drone1_pos""",,1543504663,937111491,"[1.0246872901916504, 0.008326912298798561, 0.03599046543240547]"
1543504663947278440,'',,"""Drone1_pos""",,1543504663,946987637,"[1.024680256843567, 0.00829111598432064, 0.03600151836872101]"
1543504663957074218,'',,"""Drone1_pos""",,1543504663,956966584,"[1.024678349494934, 0.008271895349025726, 0.03602680191397667]"
1543504663967006445,'',,"""Drone1_pos""",,1543504663,966895298,"[1.0246752500534058, 0.00827487837523222, 0.03601771965622902]"
1543504663977169825,'',,"""Drone1_pos""",,1543504663,977054240,"[1.0246585607528687, 0.00833361316472292, 0.03595510497689247]"
1543504663986998234,'',,"""Drone1_pos""",,1543504663,986894378,"[1.0246673822402954, 0.008332961238920689, 0.03601717948913574]"
1543504663997233978,'',,"""Drone1_pos""",,1543504663,997117003,"[1.0246742963790894, 0.00835395511239767, 0.03598979488015175]"
1543504664007070754,'',,"""Drone1_pos""",,1543504664,6905447,"[1.0246776342391968, 0.008297070860862732, 0.03598858416080475]"
1543504664016960371,'',,"""Drone1_pos""",,1543504664,16787062,"[1.0246617794036865, 0.008375724777579308, 0.035879965871572495]"
1543504664027028773,'',,"""Drone1_pos""",,1543504664,26923324,"[1.02467942237854, 0.008297757245600224, 0.036006081849336624]"
1543504664037119707,'',,"""Drone1_pos""",,1543504664,37008204,"[1.0246696472167969, 0.00809207372367382, 0.03618404269218445]"
1543504664046953673,'',,"""Drone1_pos""",,1543504664,46847056,"[1.0246710777282715, 0.008216388523578644, 0.03610401973128319]"
1543504664057134267,'',,"""Drone1_pos""",,1543504664,57001285,"[1.0246827602386475, 0.008274056948721409, 0.035995326936244965]"
1543504664067319932,'',,"""Drone1_pos""",,1543504664,67188982,"[1.0246751308441162, 0.008294050581753254, 0.035990651696920395]"
1543504664077215480,'',,"""Drone1_pos""",,1543504664,77040794,"[1.0246821641921997, 0.008303256705403328, 0.036006733775138855]"
1543504664086957433,'',,"""Drone1_pos""",,1543504664,86836582,"[1.0246440172195435, 0.008116032928228378, 0.036190249025821686]"
1543504664097049767,'',,"""Drone1_pos""",,1543504664,96938801,"[1.0246191024780273, 0.008112016133964062, 0.03619091957807541]"
1543504664107784558,'',,"""Drone1_pos""",,1543504664,107523113,"[1.0246715545654297, 0.00826734397560358, 0.036013081669807434]"
1543504664117191991,'',,"""Drone1_pos""",,1543504664,117071503,"[1.0246713161468506, 0.008300052024424076, 0.0360049307346344]"
1543504664127154375,'',,"""Drone1_pos""",,1543504664,127035009,"[1.0246820449829102, 0.008284353651106358, 0.03602423891425133]"
1543504664137087397,'',,"""Drone1_pos""",,1543504664,136945802,"[1.0246762037277222, 0.008306359872221947, 0.036020226776599884]"
1543504664147314307,'',,"""Drone1_pos""",,1543504664,147191553,"[1.0246384143829346, 0.0080992067232728, 0.03620241582393646]"
1543504664157064308,'',,"""Drone1_pos""",,1543504664,156849940,"[1.024672508239746, 0.008271219208836555, 0.036051612347364426]"
1543504664167170997,'',,"""Drone1_pos""",,1543504664,167047847,"[1.0246877670288086, 0.008286765776574612, 0.035990502685308456]"
1543504664177223195,'',,"""Drone1_pos""",,1543504664,177075040,"[1.0246517658233643, 0.008099212311208248, 0.036193907260894775]"
1543504664187022488,'',,"""Drone1_pos""",,1543504664,186858243,"[1.0246858596801758, 0.008242815732955933, 0.036042701452970505]"
1543504664197116628,'',,"""Drone1_pos""",,1543504664,196971961,"[1.0246721506118774, 0.008269243873655796, 0.03601544350385666]"
1543504664207015109,'',,"""Drone1_pos""",,1543504664,206901598,"[1.0246813297271729, 0.00828675925731659, 0.035998571664094925]"
1543504664217006191,'',,"""Drone1_pos""",,1543504664,216834605,"[1.0246813297271729, 0.008297028951346874, 0.03598836436867714]"
1543504664227352480,'',,"""Drone1_pos""",,1543504664,227203938,"[1.0246953964233398, 0.008287969045341015, 0.035983532667160034]"
1543504664237158972,'',,"""Drone1_pos""",,1543504664,236911167,"[1.0246601104736328, 0.008102357387542725, 0.0361935980618]"
1543504664247197016,'',,"""Drone1_pos""",,1543504664,246977629,"[1.0246357917785645, 0.007995442487299442, 0.03630698099732399]"
1543504664256957317,'',,"""Drone1_pos""",,1543504664,256864752,"[1.0246623754501343, 0.008183997124433517, 0.036123767495155334]"
1543504664267287695,'',,"""Drone1_pos""",,1543504664,267147307,"[1.0246859788894653, 0.008289542980492115, 0.03600427508354187]"
1543504664277295883,'',,"""Drone1_pos""",,1543504664,277129874,"[1.024685025215149, 0.008283963426947594, 0.03601282462477684]"
1543504664287107620,'',,"""Drone1_pos""",,1543504664,286881968,"[1.0246814489364624, 0.008202506229281425, 0.036097221076488495]"
1543504664297372404,'',,"""Drone1_pos""",,1543504664,297178800,"[1.0246553421020508, 0.008252590894699097, 0.03602549061179161]"
1543504664306963227,'',,"""Drone1_pos""",,1543504664,306807609,"[1.0246504545211792, 0.008379732258617878, 0.03591229021549225]"
1543504664317680312,'',,"""Drone1_pos""",,1543504664,317518437,"[1.0246788263320923, 0.008306888863444328, 0.0359974130988121]"
1543504664327032515,'',,"""Drone1_pos""",,1543504664,326916573,"[1.0246931314468384, 0.008305652998387814, 0.03600173443555832]"
1543504664337178200,'',,"""Drone1_pos""",,1543504664,337040099,"[1.0246732234954834, 0.008076181635260582, 0.03619714453816414]"
1543504664347186249,'',,"""Drone1_pos""",,1543504664,347064602,"[1.0246540307998657, 0.007965431548655033, 0.03629833459854126]"
1543504664357176530,'',,"""Drone1_pos""",,1543504664,357011555,"[1.024648904800415, 0.008176567032933235, 0.036113191395998]"
1543504664367458572,'',,"""Drone1_pos""",,1543504664,367332072,"[1.0246559381484985, 0.008308736607432365, 0.03599081560969353]"
1543504664377046665,'',,"""Drone1_pos""",,1543504664,376913496,"[1.0246734619140625, 0.008308631367981434, 0.035986315459012985]"
1543504664387216597,'',,"""Drone1_pos""",,1543504664,386945350,"[1.0246615409851074, 0.008072396740317345, 0.036191441118717194]"
1543504664397180150,'',,"""Drone1_pos""",,1543504664,397006337,"[1.0246776342391968, 0.00822976790368557, 0.03602457791566849]"
1543504664407598697,'',,"""Drone1_pos""",,1543504664,407102024,"[1.0246732234954834, 0.00829743780195713, 0.03603912889957428]"
1543504664417184486,'',,"""Drone1_pos""",,1543504664,416919671,"[1.0246661901474, 0.008306773379445076, 0.03601433336734772]"
1543504664427273336,'',,"""Drone1_pos""",,1543504664,426964900,"[1.0246741771697998, 0.008093438111245632, 0.03616784140467644]"
1543504664437312775,'',,"""Drone1_pos""",,1543504664,437156277,"[1.0246726274490356, 0.008181010372936726, 0.03611448407173157]"
1543504664446989106,'',,"""Drone1_pos""",,1543504664,446814061,"[1.024641752243042, 0.008347971364855766, 0.03598274663090706]"
1543504664457018492,'',,"""Drone1_pos""",,1543504664,456855193,"[1.0246599912643433, 0.008292896673083305, 0.036039963364601135]"
1543504664467505916,'',,"""Drone1_pos""",,1543504664,467318527,"[1.0246809720993042, 0.008307982236146927, 0.036016251891851425]"
1543504664479433271,'',,"""Drone1_pos""",,1543504664,479117782,"[1.0246853828430176, 0.00829199980944395, 0.035990823060274124]"
1543504664487351947,'',,"""Drone1_pos""",,1543504664,486978600,"[1.0246795415878296, 0.008284181356430054, 0.03600155562162399]"
1543504664498934218,'',,"""Drone1_pos""",,1543504664,498729191,"[1.0246386528015137, 0.00831773690879345, 0.035971272736787796]"
1543504664507469133,'',,"""Drone1_pos""",,1543504664,507044197,"[1.0246459245681763, 0.00836886465549469, 0.03595975413918495]"
1543504664517272195,'',,"""Drone1_pos""",,1543504664,516939251,"[1.0246702432632446, 0.008339879103004932, 0.03599361330270767]"
1543504664526969765,'',,"""Drone1_pos""",,1543504664,526850702,"[1.0246788263320923, 0.008304370567202568, 0.03597724437713623]"
1543504664537348823,'',,"""Drone1_pos""",,1543504664,537058859,"[1.0246788263320923, 0.008300027810037136, 0.03600207716226578]"
1543504664547786631,'',,"""Drone1_pos""",,1543504664,547116120,"[1.0246896743774414, 0.008267923258244991, 0.035988274961709976]"
1543504664557409857,'',,"""Drone1_pos""",,1543504664,557172487,"[1.024654746055603, 0.00834944099187851, 0.035941220819950104]"
1543504664567194639,'',,"""Drone1_pos""",,1543504664,567028575,"[1.0246803760528564, 0.008301187306642532, 0.036032285541296005]"
1543504664577586309,'',,"""Drone1_pos""",,1543504664,577425147,"[1.0246797800064087, 0.008303341455757618, 0.036012258380651474]"
1543504664587443099,'',,"""Drone1_pos""",,1543504664,587082456,"[1.0246555805206299, 0.008274215273559093, 0.03599845618009567]"
1543504664597498942,'',,"""Drone1_pos""",,1543504664,597341416,"[1.0246611833572388, 0.008214527741074562, 0.036066025495529175]"
1543504664607320883,'',,"""Drone1_pos""",,1543504664,607066628,"[1.0246697664260864, 0.008103149011731148, 0.03622552379965782]"
1543504664617193803,'',,"""Drone1_pos""",,1543504664,617011277,"[1.0246500968933105, 0.008334552869200706, 0.036006197333335876]"
1543504664627436645,'',,"""Drone1_pos""",,1543504664,627276425,"[1.0246739387512207, 0.008243883959949017, 0.03607995808124542]"
1543504664637512670,'',,"""Drone1_pos""",,1543504664,637059642,"[1.0246706008911133, 0.008293516002595425, 0.036010924726724625]"
1543504664647196236,'',,"""Drone1_pos""",,1543504664,647039871,"[1.0246847867965698, 0.008286634460091591, 0.03601281717419624]"
1543504664657488311,'',,"""Drone1_pos""",,1543504664,657337276,"[1.0246554613113403, 0.008333242498338223, 0.03595839440822601]"
1543504664667203948,'',,"""Drone1_pos""",,1543504664,667069145,"[1.0246517658233643, 0.008104940876364708, 0.03619137406349182]"
1543504664677282833,'',,"""Drone1_pos""",,1543504664,677148266,"[1.0246250629425049, 0.008270666934549809, 0.03602936863899231]"
1543504664687440152,'',,"""Drone1_pos""",,1543504664,687055693,"[1.024664044380188, 0.008196603506803513, 0.036059778183698654]"
1543504664697261196,'',,"""Drone1_pos""",,1543504664,697126049,"[1.0246862173080444, 0.008287478238344193, 0.035979919135570526]"
1543504664707297756,'',,"""Drone1_pos""",,1543504664,707113170,"[1.0246856212615967, 0.008253838866949081, 0.036008261144161224]"
1543504664717106726,'',,"""Drone1_pos""",,1543504664,716986087,"[1.0246355533599854, 0.008335200138390064, 0.035932961851358414]"
1543504664727188566,'',,"""Drone1_pos""",,1543504664,726924115,"[1.0246479511260986, 0.008096694946289062, 0.036172300577163696]"
1543504664737222562,'',,"""Drone1_pos""",,1543504664,736997259,"[1.0246752500534058, 0.008273990824818611, 0.03600691631436348]"
1543504664747331680,'',,"""Drone1_pos""",,1543504664,747172681,"[1.0246806144714355, 0.008292537182569504, 0.03596818074584007]"
1543504664757856204,'',,"""Drone1_pos""",,1543504664,756978671,"[1.024668574333191, 0.008284387178719044, 0.035993218421936035]"
1543504664767132341,'',,"""Drone1_pos""",,1543504664,766939568,"[1.0246824026107788, 0.008210760541260242, 0.03607143461704254]"
1543504664777060376,'',,"""Drone1_pos""",,1543504664,776913560,"[1.024641752243042, 0.007967101410031319, 0.03627762943506241]"
1543504664787136130,'',,"""Drone1_pos""",,1543504664,786845315,"[1.0246633291244507, 0.008257982321083546, 0.035980548709630966]"
1543504664797164272,'',,"""Drone1_pos""",,1543504664,796939888,"[1.024682641029358, 0.008305048570036888, 0.03597210720181465]"
1543504664807175057,'',,"""Drone1_pos""",,1543504664,807036850,"[1.0246860980987549, 0.008285676129162312, 0.0359969362616539]"
1543504664817224019,'',,"""Drone1_pos""",,1543504664,817082758,"[1.024631381034851, 0.008075306192040443, 0.036193713545799255]"
1543504664827514466,'',,"""Drone1_pos""",,1543504664,827282899,"[1.0246418714523315, 0.007963920012116432, 0.036295946687459946]"
1543504664837234494,'',,"""Drone1_pos""",,1543504664,837081825,"[1.024656891822815, 0.008290068246424198, 0.03602474555373192]"
